[{"address":"JOHANNESBÄCKSGATAN 57","label":"Vanligt boende","rent":"9771,00","rooms":"2","size":"54","startdate":"636640128000000000","enddate":"636643583400000000","moveindate":"636713568000000000","applications":"15","landlord":"Wallenstam","boendetyp":"","fastighetsstatus":"","fastighetstyp":"apartment","formedlingstyp":"","kontraktstyp":"","latitude":"59,8688203","longitude":"17,6786066","rentalObjectId":"100019588699","imagePrimaryId":"/Image/100019588719/263/178","balcony":"True","elevator":"True","region":"Uppsala","district":"Uppsala_Sala Backe","ranking":"29,2211126960417"},{"address":"KANTORSGATAN 56-272","label":"Studentboende","rent":"3364,00","rooms":"1","size":"19","startdate":"636639732000000000","enddate":"636642719400000000","moveindate":"636686784000000000","applications":"26","landlord":"Rikshem","boendetyp":"student","fastighetsstatus":"","fastighetstyp":"apartment","formedlingstyp":"","kontraktstyp":"shorttime","latitude":"59,8737184","longitude":"17,6421829999999","rentalObjectId":"100019515338","imagePrimaryId":"/Image/100019515371/263/178","balcony":"True","elevator":"False","region":"Uppsala","district":"Uppsala_Kvarngärdet","ranking":"29,2211126960417"},{"address":"GOTTSUNDA ALLÉ 10","label":"Vanligt boende","rent":"9200,00","rooms":"2","size":"51,3","startdate":"636639264000000000","enddate":"636642719400000000","moveindate":"636713568000000000","applications":"36","landlord":"Uppsalahem","boendetyp":"","fastighetsstatus":"","fastighetstyp":"apartment","formedlingstyp":"","kontraktstyp":"","latitude":"59,8126895808895","longitude":"17,6475196621491","rentalObjectId":"100019248045","imagePrimaryId":"/Image/100019248053/263/178","balcony":"True","elevator":"True","region":"Uppsala","district":"Uppsala_Ultuna","ranking":"29,2211126960417"},{"address":"GOTTSUNDA ALLÉ 4","label":"Vanligt boende","rent":"9202,00","rooms":"2","size":"51,3","startdate":"636639264000000000","enddate":"636642719400000000","moveindate":"636686784000000000","applications":"39","landlord":"Uppsalahem","boendetyp":"","fastighetsstatus":"","fastighetstyp":"apartment","formedlingstyp":"","kontraktstyp":"","latitude":"59,8127812917641","longitude":"17,6485389015747","rentalObjectId":"100019248075","imagePrimaryId":"/Image/100019248083/263/178","balcony":"True","elevator":"True","region":"Uppsala","district":"Uppsala_Ultuna","ranking":"29,2211126960417"},{"address":"GOTTSUNDA ALLÉ 10","label":"Vanligt boende","rent":"9200,00","rooms":"2","size":"51,3","startdate":"636639264000000000","enddate":"636642719400000000","moveindate":"636686784000000000","applications":"40","landlord":"Uppsalahem","boendetyp":"","fastighetsstatus":"","fastighetstyp":"apartment","formedlingstyp":"","kontraktstyp":"","latitude":"59,8126949756538","longitude":"17,6474874756409","rentalObjectId":"100019248105","imagePrimaryId":"/Image/100019248113/263/178","balcony":"True","elevator":"True","region":"Uppsala","district":"Uppsala_Ultuna","ranking":"29,2211126960417"},{"address":"OPALVÄGEN 12","label":"Vanligt boende","rent":"9496,00","rooms":"2","size":"60,4","startdate":"636639264000000000","enddate":"636642719400000000","moveindate":"636686784000000000","applications":"44","landlord":"Uppsalahem","boendetyp":"","fastighetsstatus":"","fastighetstyp":"apartment","formedlingstyp":"","kontraktstyp":"","latitude":"59,8520857174735","longitude":"17,5598619520233","rentalObjectId":"100019444279","imagePrimaryId":"/Image/100019444287/263/178","balcony":"True","elevator":"True","region":"Uppsala","district":"Uppsala_Stenhagen","ranking":"29,2211126960417"},{"address":"LOCKGATAN 2","label":"Vanligt boende","rent":"15342,00","rooms":"5","size":"105,3","startdate":"636639264000000000","enddate":"636642719400000000","moveindate":"636686784000000000","applications":"47","landlord":"Uppsalahem","boendetyp":"","fastighetsstatus":"","fastighetstyp":"apartment","formedlingstyp":"","kontraktstyp":"","latitude":"59,866799712942","longitude":"17,6050436386231","rentalObjectId":"100019444307","imagePrimaryId":"/Image/100019444315/263/178","balcony":"True","elevator":"True","region":"Uppsala","district":"Uppsala_Luthagen","ranking":"29,2211126960417"},{"address":"STUDENTSTADEN 31 - 134","label":"Studentboende","rent":"2883,00","rooms":"1","size":"13","startdate":"636639264000000000","enddate":"636642719400000000","moveindate":"636686784000000000","applications":"42","landlord":"Studentstaden","boendetyp":"student","fastighetsstatus":"","fastighetstyp":"apartment","formedlingstyp":"","kontraktstyp":"","latitude":"59,8573502","longitude":"17,6133305","rentalObjectId":"100019445155","imagePrimaryId":"/Image/100019518171/263/178","balcony":"","elevator":"False","region":"Uppsala","district":"Uppsala_Luthagen","ranking":"29,2211126960417"},{"address":"VÄSTGÖTARESAN 123","label":"Vanligt boende","rent":"6120,00","rooms":"2","size":"66","startdate":"636639264000000000","enddate":"636642719400000000","moveindate":"636660000000000000","applications":"146","landlord":"Skandia Fastigheter","boendetyp":"","fastighetsstatus":"","fastighetstyp":"apartment","formedlingstyp":"","kontraktstyp":"","latitude":"59,8088084","longitude":"17,7054795","rentalObjectId":"100019512767","imagePrimaryId":"/Image/100019512817/263/178","balcony":"True","elevator":"True","region":"Uppsala","district":"Uppsala_Sävja-Bergsbrunna","ranking":"29,2211126960417"},{"address":"KANTORSGATAN 48-190","label":"Studentboende","rent":"4264,00","rooms":"2","size":"39","startdate":"636639264000000000","enddate":"636642719400000000","moveindate":"636686784000000000","applications":"43","landlord":"Rikshem","boendetyp":"student","fastighetsstatus":"","fastighetstyp":"apartment","formedlingstyp":"","kontraktstyp":"shorttime","latitude":"59,8727338783234","longitude":"17,6441573039824","rentalObjectId":"100019517603","imagePrimaryId":"/Image/100019517626/263/178","balcony":"False","elevator":"True","region":"Uppsala","district":"Uppsala_Kvarngärdet","ranking":"29,2211126960417"},{"address":"KUNGSÄNGSGATAN 61A","label":"Vanligt boende","rent":"16717,00","rooms":"4","size":"103","startdate":"636639264000000000","enddate":"636642719400000000","moveindate":"636686784000000000","applications":"23","landlord":"Uppsalahem","boendetyp":"","fastighetsstatus":"","fastighetstyp":"apartment","formedlingstyp":"","kontraktstyp":"","latitude":"59,8493945776469","longitude":"17,6575051018524","rentalObjectId":"100019518459","imagePrimaryId":"/Image/100019518467/263/178","balcony":"True","elevator":"True","region":"Uppsala","district":"Uppsala_Kungsängen","ranking":"29,2211126960417"},{"address":"KANTORSGATAN 48-390","label":"Studentboende","rent":"5010,00","rooms":"2","size":"47","startdate":"636639264000000000","enddate":"636642719400000000","moveindate":"636686784000000000","applications":"34","landlord":"Rikshem","boendetyp":"student","fastighetsstatus":"","fastighetstyp":"apartment","formedlingstyp":"","kontraktstyp":"shorttime","latitude":"59,8727802872156","longitude":"17,6440283273698","rentalObjectId":"100019523240","imagePrimaryId":"/Image/100019523263/263/178","balcony":"True","elevator":"True","region":"Uppsala","district":"Uppsala_Kvarngärdet","ranking":"29,2211126960417"},{"address":"KANTORSGATAN 34-110","label":"Studentboende","rent":"7786,00","rooms":"3","size":"89","startdate":"636639264000000000","enddate":"636642719400000000","moveindate":"636660000000000000","applications":"22","landlord":"Rikshem","boendetyp":"student","fastighetsstatus":"","fastighetstyp":"apartment","formedlingstyp":"","kontraktstyp":"shorttime","latitude":"59,8730010729396","longitude":"17,6450207447053","rentalObjectId":"100019548448","imagePrimaryId":"/Image/100019548471/263/178","balcony":"False","elevator":"True","region":"Uppsala","district":"Uppsala_Kvarngärdet","ranking":"29,2211126960417"},{"address":"REPSLAGARGATAN 5 B","label":"Kollektivboende","rent":"5757,00","rooms":"2","size":"49,9","startdate":"636639264000000000","enddate":"636642719400000000","moveindate":"636660000000000000","applications":"92","landlord":"Uppsalahem","boendetyp":"collective","fastighetsstatus":"","fastighetstyp":"apartment","formedlingstyp":"","kontraktstyp":"","latitude":"59,866547809317","longitude":"17,6310639000001","rentalObjectId":"100019551255","imagePrimaryId":"/Image/100019551263/263/178","balcony":"False","elevator":"True","region":"Uppsala","district":"Uppsala_Svartbäcken","ranking":"29,2211126960417"},{"address":"RACKARBERGSGATAN 18 - 230","label":"Studentboende","rent":"5266,00","rooms":"2","size":"52,2","startdate":"636639264000000000","enddate":"636642719400000000","moveindate":"636660000000000000","applications":"50","landlord":"Studentstaden","boendetyp":"student","fastighetsstatus":"","fastighetstyp":"apartment","formedlingstyp":"","kontraktstyp":"shorttime","latitude":"59,8562545385699","longitude":"17,6169801","rentalObjectId":"100019551283","imagePrimaryId":"/Image/100019551299/263/178","balcony":"True","elevator":"False","region":"Uppsala","district":"Uppsala_Luthagen","ranking":"29,2211126960417"},{"address":"KANTORSGATAN 62","label":"Vanligt boende","rent":"7321,00","rooms":"2","size":"31","startdate":"636640992000000000","enddate":"636644447400000000","moveindate":"636713568000000000","applications":"14","landlord":"Rikshem","boendetyp":"","fastighetsstatus":"","fastighetstyp":"apartment","formedlingstyp":"","kontraktstyp":"","latitude":"59,8740337","longitude":"17,6443636","rentalObjectId":"100019548751","imagePrimaryId":"/Image/100019548773/263/178","balcony":"False","elevator":"True","region":"Uppsala","district":"Uppsala_Kvarngärdet","ranking":"21,2211126960417"},{"address":"ROSENDALSVÄGEN 27G","label":"Ungdom","rent":"5934,00","rooms":"1","size":"29,5","startdate":"636640128000000000","enddate":"636643583400000000","moveindate":"636660000000000000","applications":"31","landlord":"Uppsalahem","boendetyp":"youth","fastighetsstatus":"","fastighetstyp":"apartment","formedlingstyp":"","kontraktstyp":"","latitude":"59,8331272453677","longitude":"17,6313616190491","rentalObjectId":"100019444493","imagePrimaryId":"/Image/100019444501/263/178","balcony":"False","elevator":"True","region":"Uppsala","district":"Uppsala_Kåbo","ranking":"19,2211126960417"},{"address":"ROSENDALSVÄGEN 27G","label":"Ungdom","rent":"5934,00","rooms":"1","size":"29,5","startdate":"636640128000000000","enddate":"636643583400000000","moveindate":"636686784000000000","applications":"31","landlord":"Uppsalahem","boendetyp":"youth","fastighetsstatus":"","fastighetstyp":"apartment","formedlingstyp":"","kontraktstyp":"","latitude":"59,833580124624","longitude":"17,6308359060822","rentalObjectId":"100019444521","imagePrimaryId":"/Image/100019444529/263/178","balcony":"False","elevator":"True","region":"Uppsala","district":"Uppsala_Kåbo","ranking":"19,2211126960417"},{"address":"ROSENDALSVÄGEN 19","label":"Ungdom","rent":"5934,00","rooms":"1","size":"29,5","startdate":"636640128000000000","enddate":"636643583400000000","moveindate":"636713568000000000","applications":"36","landlord":"Uppsalahem","boendetyp":"youth","fastighetsstatus":"","fastighetstyp":"apartment","formedlingstyp":"","kontraktstyp":"","latitude":"59,8330261577499","longitude":"17,6323275116089","rentalObjectId":"100019444549","imagePrimaryId":"/Image/100019444557/263/178","balcony":"False","elevator":"True","region":"Uppsala","district":"Uppsala_Kåbo","ranking":"19,2211126960417"},{"address":"ROSENDALSVÄGEN 23L","label":"Ungdom","rent":"5934,00","rooms":"1","size":"29,5","startdate":"636640128000000000","enddate":"636643583400000000","moveindate":"636686784000000000","applications":"33","landlord":"Uppsalahem","boendetyp":"youth","fastighetsstatus":"","fastighetstyp":"apartment","formedlingstyp":"","kontraktstyp":"","latitude":"59,8335275585977","longitude":"17,6310880337296","rentalObjectId":"100019444577","imagePrimaryId":"/Image/100019444585/263/178","balcony":"False","elevator":"True","region":"Uppsala","district":"Uppsala_Kåbo","ranking":"19,2211126960417"},{"address":"TÖVÄDERSGATAN 13 B","label":"Vanligt boende","rent":"9894,00","rooms":"3","size":"84","startdate":"636640128000000000","enddate":"636643583400000000","moveindate":"636713568000000000","applications":"38","landlord":"Rikshem","boendetyp":"","fastighetsstatus":"","fastighetstyp":"apartment","formedlingstyp":"","kontraktstyp":"","latitude":"59,8734967","longitude":"17,6659522","rentalObjectId":"100019514106","imagePrimaryId":"/Image/100019514128/263/178","balcony":"True","elevator":"False","region":"Uppsala","district":"Uppsala_Gränby","ranking":"19,2211126960417"},{"address":"RACKARBERGSGATAN 10 - 313","label":"Studentboende","rent":"3405,00","rooms":"1","size":"17","startdate":"636640128000000000","enddate":"636643583400000000","moveindate":"636686784000000000","applications":"40","landlord":"Studentstaden","boendetyp":"student","fastighetsstatus":"","fastighetstyp":"apartment","formedlingstyp":"","kontraktstyp":"shorttime","latitude":"59,8559762755154","longitude":"17,6178492134918","rentalObjectId":"100019518191","imagePrimaryId":"/Image/100019518207/263/178","balcony":"","elevator":"False","region":"Uppsala","district":"Uppsala_Luthagen","ranking":"19,2211126960417"},{"address":"RACKARBERGSGATAN 20 - 317","label":"Studentboende","rent":"3146,00","rooms":"1","size":"16","startdate":"636640128000000000","enddate":"636643583400000000","moveindate":"636686784000000000","applications":"29","landlord":"Studentstaden","boendetyp":"student","fastighetsstatus":"","fastighetstyp":"apartment","formedlingstyp":"","kontraktstyp":"shorttime","latitude":"59,8562222122834","longitude":"17,6189497423279","rentalObjectId":"100019518227","imagePrimaryId":"/Image/100019518243/263/178","balcony":"","elevator":"False","region":"Uppsala","district":"Uppsala_Luthagen","ranking":"19,2211126960417"},{"address":"RACKARBERGSGATAN 22 - 215","label":"Studentboende","rent":"2854,00","rooms":"1","size":"13","startdate":"636640128000000000","enddate":"636643583400000000","moveindate":"636686784000000000","applications":"26","landlord":"Studentstaden","boendetyp":"student","fastighetsstatus":"","fastighetstyp":"apartment","formedlingstyp":"","kontraktstyp":"shorttime","latitude":"59,8563179338285","longitude":"17,618965","rentalObjectId":"100019518263","imagePrimaryId":"/Image/100019518279/263/178","balcony":"","elevator":"False","region":"Uppsala","district":"Uppsala_Luthagen","ranking":"19,2211126960417"},{"address":"STUDENTSTADEN 22 - 213","label":"Studentboende","rent":"2913,00","rooms":"1","size":"13","startdate":"636640128000000000","enddate":"636643583400000000","moveindate":"636713568000000000","applications":"27","landlord":"Studentstaden","boendetyp":"student","fastighetsstatus":"","fastighetstyp":"apartment","formedlingstyp":"","kontraktstyp":"shorttime","latitude":"59,856566418509","longitude":"17,6134152067459","rentalObjectId":"100019518299","imagePrimaryId":"/Image/100019518315/263/178","balcony":"","elevator":"False","region":"Uppsala","district":"Uppsala_Luthagen","ranking":"19,2211126960417"},{"address":"KUNGSÄNGSESPLANADEN 16","label":"Vanligt boende","rent":"13942,00","rooms":"3","size":"82","startdate":"636640128000000000","enddate":"636643583400000000","moveindate":"636686784000000000","applications":"31","landlord":"Uppsalahem","boendetyp":"","fastighetsstatus":"","fastighetstyp":"apartment","formedlingstyp":"","kontraktstyp":"","latitude":"59,8486152442119","longitude":"17,6577338126892","rentalObjectId":"100019518429","imagePrimaryId":"/Image/100019518437/263/178","balcony":"True","elevator":"True","region":"Uppsala","district":"Uppsala_Kungsängen","ranking":"19,2211126960417"},{"address":"KASTANJEGATAN 2","label":"Ungdom","rent":"12351,00","rooms":"4","size":"87","startdate":"636640128000000000","enddate":"636643583400000000","moveindate":"636660000000000000","applications":"33","landlord":"Uppsalahem","boendetyp":"youth","fastighetsstatus":"","fastighetstyp":"apartment","formedlingstyp":"","kontraktstyp":"","latitude":"59,8667904421306","longitude":"17,6652338347549","rentalObjectId":"100019518707","imagePrimaryId":"/Image/100019518715/263/178","balcony":"True","elevator":"True","region":"Uppsala","district":"Uppsala_Sala Backe","ranking":"19,2211126960417"},{"address":"FLOGSTAVÄGEN 89 D - 423","label":"Studentboende","rent":"5608,00","rooms":"3","size":"57,6","startdate":"636640128000000000","enddate":"636643583400000000","moveindate":"636686784000000000","applications":"35","landlord":"Studentstaden","boendetyp":"student","fastighetsstatus":"","fastighetstyp":"apartment","formedlingstyp":"","kontraktstyp":"","latitude":"59,8502440226316","longitude":"17,5837283932541","rentalObjectId":"100019518771","imagePrimaryId":"/Image/100019518787/263/178","balcony":"True","elevator":"False","region":"Uppsala","district":"Uppsala_Flogsta-Ekeby","ranking":"19,2211126960417"},{"address":"FLOGSTAVÄGEN 83 F - 613","label":"Studentboende","rent":"5640,00","rooms":"3","size":"57,6","startdate":"636640128000000000","enddate":"636643583400000000","moveindate":"636686784000000000","applications":"36","landlord":"Studentstaden","boendetyp":"student","fastighetsstatus":"","fastighetstyp":"apartment","formedlingstyp":"","kontraktstyp":"","latitude":"59,8501971113078","longitude":"17,583318671164","rentalObjectId":"100019518807","imagePrimaryId":"/Image/100019518823/263/178","balcony":"True","elevator":"False","region":"Uppsala","district":"Uppsala_Flogsta-Ekeby","ranking":"19,2211126960417"},{"address":"MARMORVÄGEN 9 B","label":"Vanligt boende","rent":"4864,00","rooms":"2","size":"56","startdate":"636640128000000000","enddate":"636643583400000000","moveindate":"636686784000000000","applications":"68","landlord":"Uppsalahem","boendetyp":"","fastighetsstatus":"","fastighetstyp":"apartment","formedlingstyp":"","kontraktstyp":"shorttime","latitude":"59,8391740761963","longitude":"17,6071087865082","rentalObjectId":"100019518929","imagePrimaryId":"/Image/100019518937/263/178","balcony":"True","elevator":"True","region":"Uppsala","district":"Uppsala_Eriksberg","ranking":"19,2211126960417"},{"address":"VALTHORNSVÄGEN 29","label":"Vanligt boende","rent":"4951,00","rooms":"2","size":"60","startdate":"636640128000000000","enddate":"636643583400000000","moveindate":"636713568000000000","applications":"216","landlord":"Uppsala Kommuns Fastighets AB","boendetyp":"","fastighetsstatus":"","fastighetstyp":"apartment","formedlingstyp":"","kontraktstyp":"","latitude":"59,8106054","longitude":"17,6317786","rentalObjectId":"100019548483","imagePrimaryId":"/Image/100019548628/263/178","balcony":"True","elevator":"True","region":"Uppsala","district":"Uppsala_Gottsunda","ranking":"19,2211126960417"},{"address":"DAG HAMMARSKJÖLDS VÄG 29 A","label":"Studentboende","rent":"6718,00","rooms":"1","size":"33,9","startdate":"636640128000000000","enddate":"636643583400000000","moveindate":"636686784000000000","applications":"23","landlord":"Studentstaden","boendetyp":"student","fastighetsstatus":"","fastighetstyp":"apartment","formedlingstyp":"","kontraktstyp":"","latitude":"59,8447649262499","longitude":"17,6369190465576","rentalObjectId":"100019551219","imagePrimaryId":"/Image/100019551235/263/178","balcony":"True","elevator":"True","region":"Uppsala","district":"Uppsala_Kåbo","ranking":"19,2211126960417"},{"address":"ROSENDALSVÄGEN 25C","label":"Ungdom","rent":"5934,00","rooms":"1","size":"29,5","startdate":"636640992000000000","enddate":"636644447400000000","moveindate":"636660000000000000","applications":"25","landlord":"Uppsalahem","boendetyp":"youth","fastighetsstatus":"","fastighetstyp":"apartment","formedlingstyp":"","kontraktstyp":"","latitude":"59,8333796564529","longitude":"17,6316911859833","rentalObjectId":"100019444605","imagePrimaryId":"/Image/100019444613/263/178","balcony":"False","elevator":"True","region":"Uppsala","district":"Uppsala_Kåbo","ranking":"9,22111269604166"},{"address":"VÄKTARGATAN 10 B - 213","label":"Studentboende","rent":"6281,00","rooms":"3","size":"67,5","startdate":"636640992000000000","enddate":"636644447400000000","moveindate":"636686784000000000","applications":"27","landlord":"Studentstaden","boendetyp":"student","fastighetsstatus":"","fastighetstyp":"apartment","formedlingstyp":"","kontraktstyp":"","latitude":"59,8700717463686","longitude":"17,6431999355819","rentalObjectId":"100019551471","imagePrimaryId":"/Image/100019551487/263/178","balcony":"True","elevator":"False","region":"Uppsala","district":"Uppsala_Kvarngärdet","ranking":"9,22111269604166"},{"address":"RACKARBERGSGATAN 9","label":"Studentboende","rent":"4413,00","rooms":"1","size":"28","startdate":"636640992000000000","enddate":"636644447400000000","moveindate":"636686784000000000","applications":"76","landlord":"Studentstaden","boendetyp":"student","fastighetsstatus":"","fastighetstyp":"apartment","formedlingstyp":"","kontraktstyp":"","latitude":"59,8585604520022","longitude":"17,6172577619018","rentalObjectId":"100019551507","imagePrimaryId":"/Image/100019551523/263/178","balcony":"","elevator":"True","region":"Uppsala","district":"Uppsala_Luthagen","ranking":"9,22111269604166"},{"address":"RACKARBERGSGATAN 11","label":"Studentboende","rent":"5559,00","rooms":"1","size":"37","startdate":"636640992000000000","enddate":"636644447400000000","moveindate":"636686784000000000","applications":"35","landlord":"Studentstaden","boendetyp":"student","fastighetsstatus":"","fastighetstyp":"apartment","formedlingstyp":"","kontraktstyp":"","latitude":"59,8587051","longitude":"17,6169429962952","rentalObjectId":"100019551545","imagePrimaryId":"/Image/100019551561/263/178","balcony":"","elevator":"True","region":"Uppsala","district":"Uppsala_Luthagen","ranking":"9,22111269604166"},{"address":"DJÄKNEGATAN 5 - 430","label":"Studentboende","rent":"7363,00","rooms":"3","size":"88","startdate":"636640992000000000","enddate":"636644447400000000","moveindate":"636686784000000000","applications":"29","landlord":"Studentstaden","boendetyp":"student","fastighetsstatus":"","fastighetstyp":"apartment","formedlingstyp":"","kontraktstyp":"","latitude":"59,867732729276","longitude":"17,6420850711639","rentalObjectId":"100019551583","imagePrimaryId":"/Image/100019551599/263/178","balcony":"True","elevator":"True","region":"Uppsala","district":"Uppsala_Kvarngärdet","ranking":"9,22111269604166"},{"address":"DJÄKNEGATAN 7 - 150","label":"Studentboende","rent":"4474,00","rooms":"2","size":"43","startdate":"636640992000000000","enddate":"636644447400000000","moveindate":"636686784000000000","applications":"45","landlord":"Studentstaden","boendetyp":"student","fastighetsstatus":"","fastighetstyp":"apartment","formedlingstyp":"","kontraktstyp":"","latitude":"59,8679338858209","longitude":"17,6425113423279","rentalObjectId":"100019551619","imagePrimaryId":"/Image/100019551635/263/178","balcony":"","elevator":"True","region":"Uppsala","district":"Uppsala_Kvarngärdet","ranking":"9,22111269604166"},{"address":"DJÄKNEGATAN 13 - 610","label":"Studentboende","rent":"5637,00","rooms":"2","size":"58","startdate":"636640992000000000","enddate":"636644447400000000","moveindate":"636686784000000000","applications":"27","landlord":"Studentstaden","boendetyp":"student","fastighetsstatus":"","fastighetstyp":"apartment","formedlingstyp":"","kontraktstyp":"","latitude":"59,8685264285528","longitude":"17,6419907711639","rentalObjectId":"100019551653","imagePrimaryId":"/Image/100019551669/263/178","balcony":"True","elevator":"True","region":"Uppsala","district":"Uppsala_Kvarngärdet","ranking":"9,22111269604166"},{"address":"DJÄKNEGATAN 15 - 210","label":"Studentboende","rent":"5569,00","rooms":"2","size":"58","startdate":"636640992000000000","enddate":"636644447400000000","moveindate":"636686784000000000","applications":"26","landlord":"Studentstaden","boendetyp":"student","fastighetsstatus":"","fastighetstyp":"apartment","formedlingstyp":"","kontraktstyp":"","latitude":"59,8687572071565","longitude":"17,6424335711639","rentalObjectId":"100019551689","imagePrimaryId":"/Image/100019551705/263/178","balcony":"True","elevator":"True","region":"Uppsala","district":"Uppsala_Kvarngärdet","ranking":"9,22111269604166"},{"address":"DJÄKNEGATAN 15 - 450","label":"Studentboende","rent":"4349,00","rooms":"2","size":"43","startdate":"636640992000000000","enddate":"636644447400000000","moveindate":"636686784000000000","applications":"50","landlord":"Studentstaden","boendetyp":"student","fastighetsstatus":"","fastighetstyp":"apartment","formedlingstyp":"","kontraktstyp":"","latitude":"59,8687545143129","longitude":"17,6424121134918","rentalObjectId":"100019551725","imagePrimaryId":"/Image/100019551741/263/178","balcony":"","elevator":"True","region":"Uppsala","district":"Uppsala_Kvarngärdet","ranking":"9,22111269604166"},{"address":"DJÄKNEGATAN 19 - 470","label":"Studentboende","rent":"6933,00","rooms":"3","size":"80","startdate":"636640992000000000","enddate":"636644447400000000","moveindate":"636686784000000000","applications":"24","landlord":"Studentstaden","boendetyp":"student","fastighetsstatus":"","fastighetstyp":"apartment","formedlingstyp":"","kontraktstyp":"","latitude":"59,8684876214048","longitude":"17,6414179711639","rentalObjectId":"100019551759","imagePrimaryId":"/Image/100019551775/263/178","balcony":"True","elevator":"True","region":"Uppsala","district":"Uppsala_Kvarngärdet","ranking":"9,22111269604166"},{"address":"DJÄKNEGATAN 23 - 150","label":"Studentboende","rent":"4449,00","rooms":"2","size":"43","startdate":"636640992000000000","enddate":"636644447400000000","moveindate":"636686784000000000","applications":"44","landlord":"Studentstaden","boendetyp":"student","fastighetsstatus":"","fastighetstyp":"apartment","formedlingstyp":"","kontraktstyp":"","latitude":"59,8691519","longitude":"17,6413934","rentalObjectId":"100019551797","imagePrimaryId":"/Image/100019551813/263/178","balcony":"","elevator":"True","region":"Uppsala","district":"Uppsala_Kvarngärdet","ranking":"9,22111269604166"},{"address":"VÄKTARGATAN 4 A - 111","label":"Studentboende","rent":"6381,00","rooms":"3","size":"67,5","startdate":"636640992000000000","enddate":"636644447400000000","moveindate":"636686784000000000","applications":"31","landlord":"Studentstaden","boendetyp":"student","fastighetsstatus":"","fastighetstyp":"apartment","formedlingstyp":"","kontraktstyp":"","latitude":"59,8695912855524","longitude":"17,6432104711639","rentalObjectId":"100019551831","imagePrimaryId":"/Image/100019551847/263/178","balcony":"True","elevator":"False","region":"Uppsala","district":"Uppsala_Kvarngärdet","ranking":"9,22111269604166"},{"address":"FLOGSTAVÄGEN 63 E - 511","label":"Studentboende","rent":"5508,00","rooms":"3","size":"57,6","startdate":"636640992000000000","enddate":"636644447400000000","moveindate":"636686784000000000","applications":"24","landlord":"Studentstaden","boendetyp":"student","fastighetsstatus":"","fastighetstyp":"apartment","formedlingstyp":"","kontraktstyp":"","latitude":"59,8491902","longitude":"17,5820183000001","rentalObjectId":"100019551969","imagePrimaryId":"/Image/100019551985/263/178","balcony":"True","elevator":"False","region":"Uppsala","district":"Uppsala_Flogsta-Ekeby","ranking":"9,22111269604166"},{"address":"FLOGSTAVÄGEN 77 B - 213","label":"Studentboende","rent":"5508,00","rooms":"3","size":"57,6","startdate":"636640992000000000","enddate":"636644447400000000","moveindate":"636686784000000000","applications":"24","landlord":"Studentstaden","boendetyp":"student","fastighetsstatus":"","fastighetstyp":"apartment","formedlingstyp":"","kontraktstyp":"","latitude":"59,8503814659923","longitude":"17,5845594423279","rentalObjectId":"100019552005","imagePrimaryId":"/Image/100019552021/263/178","balcony":"True","elevator":"False","region":"Uppsala","district":"Uppsala_Flogsta-Ekeby","ranking":"9,22111269604166"},{"address":"FLOGSTAVÄGEN 83 B - 233","label":"Studentboende","rent":"5708,00","rooms":"3","size":"57,6","startdate":"636640992000000000","enddate":"636644447400000000","moveindate":"636686784000000000","applications":"22","landlord":"Studentstaden","boendetyp":"student","fastighetsstatus":"","fastighetstyp":"apartment","formedlingstyp":"","kontraktstyp":"","latitude":"59,8498373662566","longitude":"17,583665","rentalObjectId":"100019552041","imagePrimaryId":"/Image/100019552057/263/178","balcony":"True","elevator":"False","region":"Uppsala","district":"Uppsala_Flogsta-Ekeby","ranking":"9,22111269604166"},{"address":"GRANITVÄGEN 6 A","label":"Vanligt boende","rent":"5669,00","rooms":"3","size":"69","startdate":"636640992000000000","enddate":"636644447400000000","moveindate":"636660000000000000","applications":"97","landlord":"Uppsalahem","boendetyp":"","fastighetsstatus":"","fastighetstyp":"apartment","formedlingstyp":"","kontraktstyp":"shorttime","latitude":"59,8404089951388","longitude":"17,6056973220901","rentalObjectId":"100019619437","imagePrimaryId":"/Image/100019619445/263/178","balcony":"True","elevator":"True","region":"Uppsala","district":"Uppsala_Eriksberg","ranking":"9,22111269604166"},{"address":"FORSBYVÄGEN 7","label":"Vanligt boende","rent":"5320,00","rooms":"1","size":"54","startdate":"636641856000000000","enddate":"636645311400000000","moveindate":"636713568000000000","applications":"74","landlord":"Rikshem","boendetyp":"","fastighetsstatus":"","fastighetstyp":"apartment","formedlingstyp":"","kontraktstyp":"","latitude":"59,7252324","longitude":"17,7919824000001","rentalObjectId":"100019511509","imagePrimaryId":"/Image/100019511535/263/178","balcony":"True","elevator":"True","region":"Knivsta","district":"Knivsta_Knivsta","ranking":"0"},{"address":"SNICKARGATAN 6","label":"Trygghetsboende","rent":"5034,00","rooms":"2","size":"58","startdate":"636640992000000000","enddate":"636647903400000000","moveindate":"636686784000000000","applications":"51","landlord":"Uppsala kommun","boendetyp":"accessability","fastighetsstatus":"","fastighetstyp":"apartment","formedlingstyp":"","kontraktstyp":"","latitude":"59,8646614","longitude":"17,6802742","rentalObjectId":"100019622162","imagePrimaryId":"/Image/100019622170/263/178","balcony":"True","elevator":"True","region":"Uppsala","district":"Uppsala_Sala Backe","ranking":"0"}]